mavpackettype,TimeUS,RSSI,RemRSSI,TxBuf,Noise,RemNoise,RxErrors,Fixed
RAD,76141303,176,165,94,24,68,0,0
RAD,76141386,176,165,94,24,68,0,0
RAD,77061297,176,167,94,34,71,0,0
RAD,77061381,176,167,94,34,71,0,0
RAD,78069213,176,168,91,24,76,0,0
RAD,78069241,176,168,91,24,76,0,0
RAD,79101294,176,171,94,23,56,0,0
RAD,79101332,176,171,94,23,56,0,0
RAD,83144207,178,172,94,25,52,0,0
RAD,83144233,178,172,94,25,52,0,0
RAD,85311335,178,169,66,29,44,0,0
RAD,85311363,178,169,66,29,44,0,0
RAD,86099011,178,169,94,25,90,0,0
RAD,86099038,178,169,94,25,90,0,0
RAD,87056729,178,170,94,26,56,0,0
RAD,87056804,178,170,94,26,56,0,0
RAD,88246770,177,169,86,27,37,0,0
RAD,88246824,177,169,86,27,37,0,0
RAD,89073774,176,168,94,24,60,0,0
RAD,89073801,176,168,94,24,60,0,0
RAD,90048809,175,166,94,24,44,0,0
RAD,90048890,175,166,94,24,44,0,0
RAD,91123790,177,171,91,28,47,0,0
RAD,91123898,177,171,91,28,47,0,0
RAD,92109312,177,168,92,23,58,0,0
RAD,92109338,177,168,92,23,58,0,0
RAD,116191294,177,170,91,22,49,0,0
RAD,116191320,177,170,91,22,49,0,0
RAD,118173766,177,170,88,26,47,0,0
RAD,118173798,177,170,88,26,47,0,0
RAD,119091361,177,168,91,26,53,0,0
RAD,119091417,177,168,91,26,53,0,0
RAD,120123798,177,166,93,34,78,0,0
RAD,120123823,177,166,93,34,78,0,0
RAD,132076370,178,170,94,24,57,0,0
RAD,132076396,178,170,94,24,57,0,0
RAD,133048948,178,171,94,25,45,0,0
RAD,133049035,178,171,94,25,45,0,0
RAD,136154346,178,166,94,27,78,0,0
RAD,136154377,178,166,94,27,78,0,0
RAD,137081631,178,167,94,26,49,0,0
RAD,137081707,178,167,94,26,49,0,0
RAD,138081372,178,167,94,26,78,0,0
RAD,138081439,178,167,94,26,78,0,0
RAD,139143789,178,166,94,24,76,0,0
RAD,139143815,178,166,94,24,76,0,0
RAD,140096302,178,170,93,23,44,0,0
RAD,140096405,178,170,93,23,44,0,0
RAD,141091311,178,170,94,37,61,0,0
RAD,141091339,178,170,94,37,61,0,0
RAD,142136655,178,170,94,25,43,0,0
RAD,142136682,178,170,94,25,43,0,0
RAD,143056288,178,170,94,28,50,0,0
RAD,143056329,178,170,94,28,50,0,0
RAD,144074079,178,171,94,29,47,0,0
RAD,144074150,178,171,94,29,47,0,0
RAD,145094126,179,170,94,24,70,0,0
RAD,145094153,179,170,94,24,70,0,0
RAD,146069217,171,168,94,24,53,0,0
RAD,146069244,171,168,94,24,53,0,0
RAD,147144256,169,162,94,27,51,0,0
RAD,147144283,169,162,94,27,51,0,0
RAD,148069198,169,163,94,26,48,0,0
RAD,148069271,169,163,94,26,48,0,0
RAD,149076251,168,160,94,23,50,0,0
RAD,149076320,168,160,94,23,50,0,0
RAD,150053803,171,165,94,26,61,0,0
RAD,150053829,171,165,94,26,61,0,0
RAD,152126258,182,176,94,24,48,0,0
RAD,152126328,182,176,94,24,48,0,0
RAD,153046719,183,176,90,32,65,0,0
RAD,153046746,183,176,90,32,65,0,0
RAD,154088870,184,176,94,31,46,0,0
RAD,154088941,184,176,94,31,46,0,0
RAD,241869211,176,164,94,33,66,0,0
RAD,241869281,176,164,94,33,66,0,0
RAD,242894084,176,164,94,26,57,0,0
RAD,242894110,176,164,94,26,57,0,0
RAD,243923810,176,169,94,23,68,0,0
RAD,243923837,176,169,94,23,68,0,0
RAD,244986308,176,167,86,26,62,0,0
RAD,244986337,176,167,86,26,62,0,0
RAD,245879164,176,169,92,42,36,0,0
RAD,245879191,176,169,92,42,36,0,0
RAD,246941635,176,169,94,52,56,0,0
RAD,246941662,176,169,94,52,56,0,0
RAD,247873795,176,162,94,27,50,0,0
RAD,247873865,176,162,94,27,50,0,0
RAD,248954353,176,170,94,23,39,0,0
RAD,248954427,176,170,94,23,39,0,0
RAD,249873833,176,170,94,25,72,0,0
RAD,249873859,176,170,94,25,72,0,0
RAD,250906669,176,165,94,24,65,0,0
RAD,250906694,176,165,94,24,65,0,0
RAD,251858825,176,171,96,23,66,0,0
RAD,251858851,176,171,96,23,66,0,0
RAD,252873807,176,167,94,23,61,0,0
RAD,252873836,176,167,94,23,61,0,0
RAD,253894159,176,165,94,34,54,0,0
RAD,253894223,176,165,94,34,54,0,0
RAD,254883781,177,170,94,34,79,0,0
RAD,254883806,177,170,94,34,79,0,0
RAD,255883847,177,166,94,32,72,0,0
RAD,255883872,177,166,94,32,72,0,0
RAD,256916637,177,166,94,22,36,0,0
RAD,256916691,177,166,94,22,36,0,0
RAD,257973831,177,170,90,25,59,0,0
RAD,257973858,177,170,90,25,59,0,0
RAD,258871314,177,168,94,25,41,0,0
RAD,258871340,177,168,94,25,41,0,0
RAD,259879243,177,168,94,28,62,0,0
RAD,259879309,177,168,94,28,62,0,0
RAD,261861369,177,169,95,28,66,0,0
RAD,261861426,177,169,95,28,66,0,0
RAD,262889214,177,169,94,24,50,0,0
RAD,262889283,177,169,94,24,50,0,0
RAD,263928883,178,170,94,26,69,0,0
RAD,263928947,178,170,94,26,69,0,0
RAD,264986324,172,167,86,27,63,0,0
RAD,264986349,172,167,86,27,63,0,0
RAD,265889246,178,170,94,27,52,0,0
RAD,265889313,178,170,94,27,52,0,0
RAD,266957909,174,162,94,25,47,0,0
RAD,266957935,174,162,94,25,47,0,0
RAD,267873861,175,160,94,25,51,0,0
RAD,267873886,175,160,94,25,51,0,0
RAD,269001812,178,172,82,31,64,0,0
RAD,269001837,178,172,82,31,64,0,0
RAD,269903820,178,172,94,27,52,0,0
RAD,269903857,178,172,94,27,52,0,0
RAD,271906338,174,161,94,31,59,0,0
RAD,271906363,174,161,94,31,59,0,0
RAD,273976347,170,158,89,23,59,0,0
RAD,273976372,170,158,89,23,59,0,0
RAD,274861946,167,156,94,24,78,0,0
RAD,274861977,167,156,94,24,78,0,0
RAD,275891634,162,154,94,34,77,0,0
RAD,275891659,162,154,94,34,77,0,0
RAD,277955393,165,159,94,25,71,0,0
RAD,277955419,165,159,94,25,71,0,0
RAD,278876293,166,159,94,29,70,0,0
RAD,278876369,166,159,94,29,70,0,0
RAD,279924112,165,157,94,29,49,0,0
RAD,279924137,165,157,94,29,49,0,0
RAD,280946336,166,158,94,52,64,0,0
RAD,280946362,166,158,94,52,64,0,0
RAD,281868979,166,160,94,28,43,0,0
RAD,281869021,166,160,94,28,43,0,0
RAD,282871418,171,163,94,30,56,0,0
RAD,282871510,171,163,94,30,56,0,0
RAD,283909072,172,166,94,29,48,0,0
RAD,283909097,172,166,94,29,48,0,0
RAD,284969040,172,168,91,27,56,0,0
RAD,284969093,172,168,91,27,56,0,0
RAD,285906356,174,166,94,25,69,0,0
RAD,285906385,174,166,94,25,69,0,0
RAD,286861808,174,167,95,28,52,0,0
RAD,286861885,174,167,95,28,52,0,0
RAD,287886349,175,169,94,39,50,0,0
RAD,287886374,175,169,94,39,50,0,0
RAD,288884100,174,164,94,33,51,0,0
RAD,288884125,174,164,94,33,51,0,0
RAD,289886301,171,165,94,27,53,0,0
RAD,289886330,171,165,94,27,53,0,0
RAD,291098860,172,165,53,26,60,0,0
RAD,291098885,172,165,53,26,60,0,0
RAD,291909418,174,167,94,32,56,0,0
RAD,291909459,174,167,94,32,56,0,0
RAD,292886342,174,167,94,27,55,0,0
RAD,292886412,174,167,94,27,55,0,0
RAD,293901669,176,164,94,28,46,0,0
RAD,293901698,176,164,94,28,46,0,0
RAD,294864228,180,171,94,26,39,0,0
RAD,294864298,180,171,94,26,39,0,0
RAD,295893840,180,172,94,27,37,0,0
RAD,295893865,180,172,94,27,37,0,0
RAD,296896667,179,167,94,25,38,0,0
RAD,296896693,179,167,94,25,38,0,0
RAD,297860253,176,170,95,28,75,0,0
RAD,297860319,176,170,95,28,75,0,0
RAD,299884159,175,166,94,33,49,0,0
RAD,299884256,175,166,94,33,49,0,0
RAD,301909382,171,164,94,29,59,0,0
RAD,301909407,171,164,94,29,59,0,0
RAD,302928877,171,161,94,28,63,0,0
RAD,302928951,171,161,94,28,63,0,0
RAD,303966272,171,161,92,46,51,0,0
RAD,303966353,171,161,92,46,51,0,0
RAD,304981357,171,164,88,26,56,0,0
RAD,304981383,171,164,88,26,56,0,0
RAD,305878878,171,164,94,28,58,0,0
RAD,305878903,171,164,94,28,58,0,0
RAD,306984190,176,170,87,41,55,0,0
RAD,306984215,176,170,87,41,55,0,0
RAD,307894223,176,172,90,26,49,0,0
RAD,307894248,176,172,90,26,49,0,0
RAD,308936359,177,171,94,25,55,0,0
RAD,308936415,177,171,94,25,55,0,0
RAD,310957806,177,170,94,28,62,0,0
RAD,310957831,177,170,94,28,62,0,0
RAD,311883825,176,168,94,31,44,0,0
RAD,311883852,176,168,94,31,44,0,0
RAD,312936341,175,165,94,28,44,0,0
RAD,312936366,175,165,94,28,44,0,0
RAD,313866390,173,164,94,34,49,0,0
RAD,313866498,173,164,94,34,49,0,0
RAD,314878872,173,164,94,33,42,0,0
RAD,314878897,173,164,94,33,42,0,0
RAD,315928950,176,171,94,25,57,0,0
RAD,315928975,176,171,94,25,57,0,0
RAD,316909129,178,168,94,27,55,0,0
RAD,316909154,178,168,94,27,55,0,0
RAD,317864228,177,167,95,28,39,0,0
RAD,317864305,177,167,95,28,39,0,0
RAD,318876689,177,167,94,35,40,0,0
RAD,318876715,177,167,94,35,40,0,0
RAD,319894107,177,165,94,24,56,0,0
RAD,319894132,177,165,94,24,56,0,0
RAD,320873819,176,161,94,24,60,0,0
RAD,320873878,176,161,94,24,60,0,0
RAD,321881717,180,175,94,28,63,0,0
RAD,321881797,180,175,94,28,63,0,0
RAD,322923869,180,175,94,41,62,0,0
RAD,322923912,180,175,94,41,62,0,0
RAD,323976555,180,172,89,25,76,0,0
RAD,323976608,180,172,89,25,76,0,0
RAD,324989117,180,174,85,30,55,0,0
RAD,324989187,180,174,85,30,55,0,0
RAD,325903830,181,176,94,24,49,0,0
RAD,325903868,181,176,94,24,49,0,0
RAD,326869334,181,175,94,28,61,0,0
RAD,326869366,181,175,94,28,61,0,0
RAD,327866280,181,173,94,39,47,0,0
RAD,327866340,181,173,94,39,47,0,0
RAD,329926314,180,173,93,45,54,0,0
RAD,329926345,180,173,93,45,54,0,0
RAD,330898828,179,172,91,35,51,0,0
RAD,330898945,179,172,91,35,51,0,0
RAD,331881607,179,171,94,23,53,0,0
RAD,331881634,179,171,94,23,53,0,0
RAD,332923869,179,173,94,29,49,0,0
RAD,332923896,179,173,94,29,49,0,0
RAD,333873811,170,173,94,26,51,0,0
RAD,333873838,170,173,94,26,51,0,0
RAD,334896672,178,172,94,28,48,0,0
RAD,334896699,178,172,94,28,48,0,0
RAD,335931692,178,172,94,25,58,0,0
RAD,335931719,178,172,94,25,58,0,0
RAD,336941298,178,170,94,33,52,0,0
RAD,336941325,178,170,94,33,52,0,0
RAD,337859347,178,172,91,39,64,0,0
RAD,337859378,178,172,91,39,64,0,0
RAD,1178921665,180,164,100,32,66,0,0
RAD,1178921694,180,164,100,32,66,0,0
RAD,1180026291,180,166,80,29,87,0,0
RAD,1180026317,180,166,80,29,87,0,0
RAD,1180949383,180,162,94,27,91,0,0
RAD,1180949409,180,162,94,27,91,0,0
RAD,1182043835,180,164,81,35,87,0,0
RAD,1182043967,180,164,81,35,87,0,0
RAD,1182946694,180,167,94,44,88,0,0
RAD,1182946719,180,167,94,44,88,0,0
RAD,1183959361,180,161,94,25,86,0,0
RAD,1183959391,180,161,94,25,86,0,0
RAD,1185136729,180,169,54,28,81,0,0
RAD,1185136754,180,169,54,28,81,0,0
RAD,1185963796,180,169,94,50,71,0,0
RAD,1185963821,180,169,94,50,71,0,0
RAD,1186931342,180,170,98,33,49,0,0
RAD,1186931367,180,170,98,33,49,0,0
RAD,1187924192,180,172,100,25,70,0,0
RAD,1187924248,180,172,100,25,70,0,0
RAD,1188981312,180,174,94,34,55,0,0
RAD,1188981337,180,174,94,34,55,0,0
RAD,1190026299,180,173,86,35,53,0,0
RAD,1190026325,180,173,86,35,53,0,0
RAD,1190899212,180,174,100,36,50,0,0
RAD,1190899292,180,174,100,36,50,0,0
RAD,1192941344,180,175,95,30,60,0,0
RAD,1192941369,180,175,95,30,60,0,0
RAD,1193903864,181,174,100,23,66,0,0
RAD,1193903931,181,174,100,23,66,0,0
RAD,1194938865,179,168,96,39,65,0,0
RAD,1194938943,179,168,96,39,65,0,0
RAD,1195968927,177,164,91,31,46,0,0
RAD,1195968952,177,164,91,31,46,0,0
RAD,1197956319,177,164,94,39,46,0,0
RAD,1197956411,177,164,94,39,46,0,0
RAD,1198950329,177,170,94,28,72,0,0
RAD,1198950389,177,170,94,28,72,0,0
RAD,1200026331,178,167,86,31,60,0,0
RAD,1200026362,178,167,86,31,60,0,0
RAD,1200941364,178,171,95,35,50,0,0
RAD,1200941390,178,171,95,35,50,0,0
RAD,1201984090,178,169,94,33,55,0,0
RAD,1201984158,178,169,94,33,55,0,0
RAD,1203960317,179,170,94,30,54,0,0
RAD,1203960388,179,170,94,30,54,0,0
RAD,1205038917,178,170,82,25,53,0,0
RAD,1205039007,178,170,82,25,53,0,0
RAD,1205918910,178,170,96,36,77,0,0
RAD,1205918939,178,170,96,36,77,0,0
RAD,1207036654,176,166,83,33,82,0,0
RAD,1207036707,176,166,83,33,82,0,0
RAD,1207924197,174,159,100,32,77,0,0
RAD,1207924267,174,159,100,32,77,0,0
RAD,1208934177,177,167,97,40,71,0,0
RAD,1208934202,177,167,97,40,71,0,0
RAD,1210956327,181,172,94,28,40,0,0
RAD,1210956352,181,172,94,28,40,0,0
RAD,1211978822,180,174,94,29,48,0,0
RAD,1211978848,180,174,94,29,48,0,0
RAD,1212944212,180,172,94,30,87,0,0
RAD,1212944292,180,172,94,30,87,0,0
RAD,1213906710,180,173,100,29,53,0,0
RAD,1213906735,180,173,100,29,53,0,0
RAD,1214961315,182,169,94,27,96,0,0
RAD,1214961432,182,169,94,27,96,0,0
RAD,1215948959,181,174,94,35,83,0,0
RAD,1215948984,181,174,94,35,83,0,0
RAD,1217031643,181,175,84,24,48,0,0
RAD,1217031749,181,175,84,24,48,0,0
RAD,1217957831,181,169,94,33,57,0,0
RAD,1217957884,181,169,94,33,57,0,0
RAD,1218960294,181,169,94,33,61,0,0
RAD,1218960319,181,169,94,33,61,0,0
RAD,1219994249,180,166,94,28,76,0,0
RAD,1219994316,180,166,94,28,76,0,0
RAD,1220978894,177,166,94,26,54,0,0
RAD,1220978919,177,166,94,26,54,0,0
RAD,1221978855,173,165,94,28,68,0,0
RAD,1221978913,173,165,94,28,68,0,0
RAD,1222946791,169,157,94,37,61,0,0
RAD,1222946816,169,157,94,37,61,0,0
RAD,1224046751,167,151,79,41,80,0,0
RAD,1224046778,167,151,79,41,80,0,0
RAD,1225009442,167,160,91,35,60,0,0
RAD,1225009468,167,160,91,35,60,0,0
RAD,1225969250,165,158,94,36,41,0,0
RAD,1225969332,165,158,94,36,41,0,0
RAD,1227953832,170,164,94,33,65,0,0
RAD,1227953858,170,164,94,33,65,0,0
RAD,1228953858,170,162,94,39,74,0,0
RAD,1228953884,170,162,94,39,74,0,0
RAD,1230034148,171,163,83,33,79,0,0
RAD,1230034202,171,163,83,33,79,0,0
RAD,1230951367,173,163,94,31,52,0,0
RAD,1230951408,173,163,94,31,52,0,0
RAD,1231946827,175,165,94,36,75,0,0
RAD,1231946852,175,165,94,36,75,0,0
RAD,1232938902,177,165,96,32,83,0,0
RAD,1232938939,177,165,96,32,83,0,0
RAD,1233948869,180,172,94,27,51,0,0
RAD,1233948899,180,172,94,27,51,0,0
RAD,1234938911,180,173,96,29,54,0,0
RAD,1234938936,180,173,96,29,54,0,0
RAD,1236011349,180,171,90,27,51,0,0
RAD,1236011375,180,171,90,27,51,0,0
RAD,1236938887,180,171,92,30,43,0,0
RAD,1236938911,180,171,92,30,43,0,0
RAD,1237961340,179,168,94,31,78,0,0
RAD,1237961365,179,168,94,31,78,0,0
RAD,1238944243,174,166,94,51,82,0,0
RAD,1238944269,174,166,94,51,82,0,0
RAD,1239941396,168,157,95,25,64,0,0
RAD,1239941422,168,157,95,25,64,0,0
RAD,1241021707,164,156,87,36,72,0,0
RAD,1241021737,164,156,87,36,72,0,0
RAD,1242057837,164,149,76,28,63,0,0
RAD,1242057862,164,149,76,28,63,0,0
RAD,1242946772,164,152,94,29,66,0,0
RAD,1242946832,164,152,94,29,66,0,0
RAD,1245141397,163,150,54,29,69,0,0
RAD,1245141452,163,150,54,29,69,0,0
RAD,1245963840,167,154,94,30,55,0,0
RAD,1245963865,167,154,94,30,55,0,0
RAD,1247049011,163,152,79,29,79,0,0
RAD,1247049047,163,152,79,29,79,0,0
RAD,1247960314,162,154,94,29,52,0,0
RAD,1247960393,162,154,94,29,52,0,0
RAD,1248946830,162,156,94,24,71,0,0
RAD,1248946856,162,156,94,24,71,0,0
RAD,1250031662,164,155,84,29,57,0,0
RAD,1250031775,164,155,84,29,57,0,0
RAD,1250898896,164,155,100,30,61,0,0
RAD,1250898983,164,155,100,30,61,0,0
RAD,1251981671,165,159,94,47,42,0,0
RAD,1251981696,165,159,94,47,42,0,0
RAD,1253026298,167,159,86,27,32,0,0
RAD,1253026367,167,159,86,27,32,0,0
RAD,1254946808,173,159,94,36,71,0,0
RAD,1254946833,173,159,94,36,71,0,0
RAD,1255971359,173,160,94,39,90,0,0
RAD,1255971384,173,160,94,39,90,0,0
RAD,1257041334,173,167,81,44,75,0,0
RAD,1257041386,173,167,81,44,75,0,0
RAD,1258009435,173,158,91,53,95,0,0
RAD,1258009513,173,158,91,53,95,0,0
RAD,1259019204,173,164,88,44,78,0,0
RAD,1259019230,173,164,88,44,78,0,0
RAD,1260031696,173,169,84,31,47,0,0
RAD,1260031755,173,169,84,31,47,0,0
RAD,1261938853,171,166,96,44,51,0,0
RAD,1261938916,171,166,96,44,51,0,0
RAD,1263019220,170,164,88,26,58,0,0
RAD,1263019246,170,164,88,26,58,0,0
RAD,1263944294,170,160,94,45,49,0,0
RAD,1263944319,170,160,94,45,49,0,0
RAD,1265041379,171,163,81,30,61,0,0
RAD,1265041405,171,163,81,30,61,0,0
RAD,1265971691,170,162,94,35,74,0,0
RAD,1265971726,170,162,94,35,74,0,0
RAD,1266938854,170,161,96,38,69,0,0
RAD,1266938941,170,161,96,38,69,0,0
RAD,1267923820,170,161,96,38,73,0,0
RAD,1267923845,170,161,96,38,73,0,0
RAD,1269060346,170,162,75,44,59,0,0
RAD,1269060371,170,162,75,44,59,0,0
RAD,1271957788,169,159,94,39,56,0,0
RAD,1271957813,169,159,94,39,56,0,0
RAD,1273031699,170,158,84,40,76,0,0
RAD,1273031724,170,158,84,40,76,0,0
RAD,1273957743,172,160,94,45,85,0,0
RAD,1273957822,172,160,94,45,85,0,0
RAD,1274973923,172,165,94,61,76,0,0
RAD,1274973956,172,165,94,61,76,0,0
RAD,1275957758,172,164,94,36,69,0,0
RAD,1275957784,172,164,94,36,69,0,0
RAD,1276938828,174,158,96,42,74,0,0
RAD,1276938854,174,158,96,42,74,0,0
RAD,1277961356,175,162,94,46,85,0,0
RAD,1277961415,175,162,94,46,85,0,0
RAD,1279060346,177,167,75,51,65,0,0
RAD,1279060374,177,167,75,51,65,0,0
RAD,1280031379,178,165,84,46,71,0,0
RAD,1280031527,178,165,84,46,71,0,0
RAD,1280955327,177,166,94,55,96,0,0
RAD,1280955426,177,166,94,55,96,0,0
RAD,1281951354,177,170,94,40,62,0,0
RAD,1281951435,177,170,94,40,62,0,0
RAD,1282963859,177,172,94,33,73,0,0
RAD,1282963919,177,172,94,33,73,0,0
RAD,1284018921,174,168,88,48,78,0,0
RAD,1284018946,174,168,88,48,78,0,0
RAD,1285063850,169,165,75,48,77,0,0
RAD,1285063875,169,165,75,48,77,0,0
RAD,1285960304,170,164,94,29,71,0,0
RAD,1285960351,170,164,94,29,71,0,0
RAD,1286938917,170,156,96,55,67,0,0
RAD,1286938942,170,156,96,55,67,0,0
RAD,1288031436,170,163,84,43,64,0,0
RAD,1288031467,170,163,84,43,64,0,0
RAD,1289938926,171,165,96,32,54,0,0
RAD,1289938990,171,165,96,32,54,0,0
RAD,1290957818,174,167,94,35,67,0,0
RAD,1290957917,174,167,94,35,67,0,0
RAD,1291996328,176,167,94,35,70,0,0
RAD,1291996387,176,167,94,35,70,0,0
RAD,1294948871,174,165,94,29,52,0,0
RAD,1294948896,174,165,94,29,52,0,0
RAD,1295952815,174,168,94,39,54,0,0
RAD,1295952847,174,168,94,39,54,0,0
RAD,1297968900,174,164,94,46,55,0,0
RAD,1297968972,174,164,94,46,55,0,0
RAD,1298968911,174,162,90,34,62,0,0
RAD,1298968969,174,162,90,34,62,0,0
RAD,1299969014,174,167,94,32,64,0,0
RAD,1299969060,174,167,94,32,64,0,0
RAD,1300958876,174,160,94,36,65,0,0
RAD,1300958902,174,160,94,36,65,0,0
RAD,1301971349,168,156,94,34,48,0,0
RAD,1301971470,168,156,94,34,48,0,0
RAD,1303923857,167,158,100,42,61,0,0
RAD,1303923919,167,158,100,42,61,0,0
RAD,1305101644,168,163,63,43,71,0,0
RAD,1305101755,168,163,63,43,71,0,0
RAD,1306939172,173,167,96,32,56,0,0
RAD,1306939197,173,167,96,32,56,0,0
RAD,1307981312,173,165,94,29,76,0,0
RAD,1307981436,173,165,94,29,76,0,0
RAD,1311955209,177,166,94,29,50,0,0
RAD,1311955234,177,166,94,29,50,0,0
RAD,1314014152,178,171,90,25,80,0,0
RAD,1314014179,178,171,90,25,80,0,0
RAD,1314952759,180,172,94,30,57,0,0
RAD,1314952784,180,172,94,30,57,0,0
RAD,1316029259,188,181,85,24,69,0,0
RAD,1316029284,188,181,85,24,69,0,0
RAD,1316952807,189,180,94,35,55,0,0
RAD,1316952833,189,180,94,35,55,0,0
RAD,1317933950,190,185,98,26,50,0,0
RAD,1317934019,190,185,98,26,50,0,0
RAD,1318956395,190,184,94,26,59,0,0
RAD,1318956421,190,184,94,26,59,0,0
RAD,1319933834,189,174,97,29,69,0,0
RAD,1319933913,189,174,97,29,69,0,0
RAD,1320936315,189,182,97,37,90,0,0
RAD,1320936344,189,182,97,37,90,0,0
RAD,1323955303,188,176,94,28,36,0,0
RAD,1323955328,188,176,94,28,36,0,0
RAD,1326016634,186,178,89,25,61,0,0
RAD,1326016695,186,178,89,25,61,0,0
RAD,1326968879,186,171,94,26,88,0,0
RAD,1326968936,186,171,94,26,88,0,0
RAD,1327976364,186,175,94,26,52,0,0
RAD,1327976389,186,175,94,26,52,0,0
RAD,1328950364,186,175,94,28,57,0,0
RAD,1328950390,186,175,94,28,57,0,0
RAD,1329931330,179,168,94,29,73,0,0
RAD,1329931454,179,168,94,29,73,0,0
RAD,1330938974,173,160,96,30,89,0,0
RAD,1330939026,173,160,96,30,89,0,0
RAD,1331956359,168,155,94,24,59,0,0
RAD,1331956413,168,155,94,24,59,0,0
RAD,1333033863,165,158,83,32,60,0,0
RAD,1333033890,165,158,83,32,60,0,0
RAD,1334074180,173,156,71,31,62,0,0
RAD,1334074205,173,156,71,31,62,0,0
RAD,1334939193,181,172,96,30,65,0,0
RAD,1334939218,181,172,96,30,65,0,0
RAD,1335964193,182,176,94,28,73,0,0
RAD,1335964249,182,176,94,28,73,0,0
RAD,1336952796,181,170,94,27,63,0,0
RAD,1336952820,181,170,94,27,63,0,0
RAD,1338976606,179,173,94,27,68,0,0
RAD,1338976703,179,173,94,27,68,0,0
RAD,1339901661,173,160,100,35,52,0,0
RAD,1339901687,173,160,100,35,52,0,0
RAD,1340966381,170,163,94,26,54,0,0
RAD,1340966407,170,163,94,26,54,0,0
RAD,1341946319,170,158,94,27,81,0,0
RAD,1341946374,170,158,94,27,81,0,0
RAD,1343950254,175,170,94,34,75,0,0
RAD,1343950306,175,170,94,34,75,0,0
RAD,1345041446,176,167,81,29,68,0,0
RAD,1345041472,176,167,81,29,68,0,0
RAD,1345950310,175,167,94,27,67,0,0
RAD,1345950335,175,167,94,27,67,0,0
RAD,1351956397,174,165,94,35,60,0,0
RAD,1351956422,174,165,94,35,60,0,0
RAD,1353039686,175,164,81,35,85,0,0
RAD,1353039728,175,164,81,35,85,0,0
RAD,1353952720,175,164,94,36,85,0,0
RAD,1353952745,175,164,94,36,85,0,0
RAD,1354978869,175,163,94,28,70,0,0
RAD,1354978894,175,163,94,28,70,0,0
RAD,1355933903,175,166,97,46,65,0,0
RAD,1355933991,175,166,97,46,65,0,0
RAD,1356939275,175,168,96,35,68,0,0
RAD,1356939361,175,168,96,35,68,0,0
RAD,1357946317,175,166,94,36,60,0,0
RAD,1357946373,175,166,94,36,60,0,0
RAD,1358961821,173,164,94,31,67,0,0
RAD,1358961850,173,164,94,31,67,0,0
RAD,1359953820,171,159,94,38,69,0,0
RAD,1359953901,171,159,94,38,69,0,0
RAD,1360918922,171,159,96,42,62,0,0
RAD,1360918948,171,159,96,42,62,0,0
RAD,1361952773,169,159,94,33,73,0,0
RAD,1361952799,169,159,94,33,73,0,0
RAD,1363026719,169,161,86,33,63,0,0
RAD,1363026744,169,161,86,33,63,0,0
RAD,1363946405,169,157,94,32,59,0,0
RAD,1363946430,169,157,94,32,59,0,0
RAD,1365173831,164,152,54,35,67,0,0
RAD,1365173929,164,152,54,35,67,0,0
RAD,1365964307,165,155,94,31,65,0,0
RAD,1365964332,165,155,94,31,65,0,0
RAD,1366943840,166,151,94,35,91,0,0
RAD,1366943869,166,151,94,35,91,0,0
RAD,1367914162,166,156,100,34,81,0,0
RAD,1367914247,166,156,100,34,81,0,0
RAD,1369006371,164,149,92,29,85,0,0
RAD,1369006396,164,149,92,29,85,0,0
RAD,1370006344,170,152,92,39,57,0,0
RAD,1370006424,170,152,92,39,57,0,0
RAD,1371948914,171,161,94,29,52,0,0
RAD,1371948939,171,161,94,29,52,0,0
RAD,1373043801,169,157,80,42,70,0,0
RAD,1373043828,169,157,80,42,70,0,0
RAD,1373989114,167,155,94,42,82,0,0
RAD,1373989141,167,155,94,42,82,0,0
RAD,1374984048,167,153,94,27,58,0,0
RAD,1374984154,167,153,94,27,58,0,0
RAD,1375939114,167,157,96,30,67,0,0
RAD,1375939152,167,157,96,30,67,0,0
RAD,1376946724,167,158,94,47,75,0,0
RAD,1376946751,167,158,94,47,75,0,0
RAD,1377949402,167,157,94,29,60,0,0
RAD,1377949429,167,157,94,29,60,0,0
RAD,1378946609,167,158,94,31,60,0,0
RAD,1378946704,167,158,94,31,60,0,0
RAD,1379946709,167,155,94,28,72,0,0
RAD,1379946736,167,155,94,28,72,0,0
RAD,1380938845,167,159,96,27,44,0,0
RAD,1380938872,167,159,96,27,44,0,0
RAD,1381959259,167,158,94,26,47,0,0
RAD,1381959327,167,158,94,26,47,0,0
RAD,1383028847,167,158,85,30,83,0,0
RAD,1383028874,167,158,85,30,83,0,0
RAD,1385062072,167,158,75,26,63,0,0
RAD,1385062152,167,158,75,26,63,0,0
RAD,1385934050,167,159,97,26,57,0,0
RAD,1385934132,167,159,97,26,57,0,0
RAD,1386968902,167,155,94,23,62,0,0
RAD,1386968933,167,155,94,23,62,0,0
RAD,1387913784,167,157,100,25,61,0,0
RAD,1387913811,167,157,100,25,61,0,0
RAD,1798941281,182,171,92,27,75,0,0
RAD,1798941308,182,171,92,27,75,0,0
RAD,1799988826,182,174,94,25,49,0,0
RAD,1799988892,182,174,94,25,49,0,0
RAD,1800948871,182,174,94,25,61,0,0
RAD,1800948896,182,174,94,25,61,0,0
RAD,1801963817,182,168,94,23,32,0,0
RAD,1801963843,182,168,94,23,32,0,0
RAD,1802946683,182,175,94,22,50,0,0
RAD,1802946711,182,175,94,22,50,0,0
RAD,1803951351,182,174,94,28,81,0,0
RAD,1803951378,182,174,94,28,81,0,0
RAD,1805961331,182,173,94,25,42,0,0
RAD,1805961362,182,173,94,25,42,0,0
RAD,1806944204,182,174,94,23,55,0,0
RAD,1806944230,182,174,94,23,55,0,0
RAD,1809981525,182,171,94,26,89,0,0
RAD,1809981621,182,171,94,26,89,0,0
RAD,1810953847,183,172,94,27,77,0,0
RAD,1810953881,183,172,94,27,77,0,0
RAD,1812944236,183,174,94,27,62,0,0
RAD,1812944261,183,174,94,27,62,0,0
RAD,1814009398,183,175,91,23,50,0,0
RAD,1814009474,183,175,91,23,50,0,0
RAD,1815041258,183,176,81,25,37,0,0
RAD,1815041303,183,176,81,25,37,0,0
RAD,1815934081,183,174,97,23,58,0,0
RAD,1815934108,183,174,97,23,58,0,0
RAD,1816944249,183,175,94,26,56,0,0
RAD,1816944335,183,175,94,26,56,0,0
RAD,1818031604,183,174,84,24,66,0,0
RAD,1818031631,183,174,84,24,66,0,0
RAD,1818951302,183,173,94,22,60,0,0
RAD,1818951329,183,173,94,22,60,0,0
RAD,1820106600,183,178,61,23,53,0,0
RAD,1820106655,183,178,61,23,53,0,0
RAD,1820986223,183,176,94,41,59,0,0
RAD,1820986321,183,176,94,41,59,0,0
RAD,1821938782,183,171,96,29,67,0,0
RAD,1821938879,183,171,96,29,67,0,0
RAD,1822988786,183,176,94,22,53,0,0
RAD,1822988863,183,176,94,22,53,0,0
RAD,1824013805,183,176,90,24,57,0,0
RAD,1824013831,183,176,90,24,57,0,0
RAD,1824976262,183,169,83,25,54,0,0
RAD,1824976315,183,169,83,25,54,0,0
RAD,1825894122,183,175,97,21,50,0,0
RAD,1825894208,183,175,97,21,50,0,0
RAD,1826953803,183,175,94,29,84,0,0
RAD,1826953830,183,175,94,29,84,0,0
RAD,1827894053,183,175,100,22,66,0,0
RAD,1827894121,183,175,100,22,66,0,0
RAD,1829966278,183,177,94,25,43,0,0
RAD,1829966365,183,177,94,25,43,0,0
RAD,1831031658,183,169,84,25,75,0,0
RAD,1831031714,183,169,84,25,75,0,0
RAD,1831926277,183,174,100,23,68,0,0
RAD,1831926353,183,174,100,23,68,0,0
RAD,1834951292,182,175,94,26,38,0,0
RAD,1834951318,182,175,94,26,38,0,0
RAD,1835966314,182,174,94,30,62,0,0
RAD,1835966375,182,174,94,30,62,0,0
RAD,1836953864,182,174,94,24,76,0,0
RAD,1836953889,182,174,94,24,76,0,0
RAD,1837953836,182,172,94,27,49,0,0
RAD,1837953861,182,172,94,27,49,0,0
RAD,1838956833,182,175,94,26,59,0,0
RAD,1838956858,182,175,94,26,59,0,0
RAD,1839941311,182,175,95,27,52,0,0
RAD,1839941336,182,175,95,27,52,0,0
RAD,1842944246,182,175,94,24,49,0,0
RAD,1842944304,182,175,94,24,49,0,0
RAD,1844013831,182,175,89,23,45,0,0
RAD,1844013863,182,175,89,23,45,0,0
RAD,1845066312,182,175,74,23,60,0,0
RAD,1845066337,182,175,74,23,60,0,0
RAD,1845921762,182,176,100,24,72,0,0
RAD,1845921841,182,176,100,24,72,0,0
RAD,1846956752,182,176,94,27,40,0,0
RAD,1846956778,182,176,94,27,40,0,0
RAD,1847956799,182,168,94,21,69,0,0
RAD,1847956830,182,168,94,21,69,0,0
RAD,1848966300,182,175,94,27,39,0,0
RAD,1848966325,182,175,94,27,39,0,0
RAD,1849959340,182,174,94,31,57,0,0
RAD,1849959400,182,174,94,31,57,0,0
RAD,1850936312,182,176,97,23,41,0,0
RAD,1850936426,182,176,97,23,41,0,0
RAD,1851956846,182,172,94,25,50,0,0
RAD,1851956872,182,172,94,25,50,0,0
RAD,1852961279,182,175,94,26,52,0,0
RAD,1852961304,182,175,94,26,52,0,0
RAD,1853938839,180,175,96,38,77,0,0
RAD,1853938864,180,175,96,38,77,0,0
RAD,1854953828,180,173,94,27,46,0,0
RAD,1854953896,180,173,94,27,46,0,0
RAD,1855976329,177,170,94,29,57,0,0
RAD,1855976418,177,170,94,29,57,0,0
RAD,1857023867,177,172,86,33,38,0,0
RAD,1857023928,177,172,86,33,38,0,0
RAD,1858971753,180,176,94,33,52,0,0
RAD,1858971778,180,176,94,33,52,0,0
RAD,1859951440,182,178,94,31,64,0,0
RAD,1859951465,182,178,94,31,64,0,0
RAD,1860960296,184,178,94,28,37,0,0
RAD,1860960322,184,178,94,28,37,0,0
RAD,1861953879,184,177,94,27,45,0,0
RAD,1861953908,184,177,94,27,45,0,0
RAD,1862961398,182,174,94,28,61,0,0
RAD,1862961460,182,174,94,28,61,0,0
RAD,1864026429,176,168,86,26,48,0,0
RAD,1864026489,176,168,86,26,48,0,0
RAD,1865128990,167,161,54,28,52,0,0
RAD,1865129045,167,161,54,28,52,0,0
RAD,1865944222,167,159,94,35,55,0,0
RAD,1865944297,167,159,94,35,55,0,0
RAD,1867021789,168,160,87,34,55,0,0
RAD,1867021814,168,160,87,34,55,0,0
RAD,1867944707,171,158,94,25,67,0,0
RAD,1867944733,171,158,94,25,67,0,0
RAD,1868981700,174,171,94,27,53,0,0
RAD,1868981725,174,171,94,27,53,0,0
RAD,1870944342,179,175,95,26,38,0,0
RAD,1870944371,179,175,95,26,38,0,0
RAD,1872948920,181,170,94,25,50,0,0
RAD,1872948945,181,170,94,25,50,0,0
RAD,1874044371,180,168,81,25,79,0,0
RAD,1874044398,180,168,81,25,79,0,0
RAD,1875944251,179,167,94,27,77,0,0
RAD,1875944276,179,167,94,27,77,0,0
RAD,1877034678,179,171,83,30,66,0,0
RAD,1877034703,179,171,83,30,66,0,0
RAD,1877994143,179,172,94,28,66,0,0
RAD,1877994169,179,172,94,28,66,0,0
RAD,1878941318,179,171,95,36,53,0,0
RAD,1878941407,179,171,95,36,53,0,0
RAD,1879941353,177,165,95,31,41,0,0
RAD,1879941394,177,165,95,31,41,0,0
RAD,1881023874,176,167,86,30,66,0,0
RAD,1881023933,176,167,86,30,66,0,0
RAD,1881963869,176,169,94,34,51,0,0
RAD,1881963935,176,169,94,34,51,0,0
RAD,1882946364,176,164,94,26,50,0,0
RAD,1882946394,176,164,94,26,50,0,0
RAD,1884032187,176,167,84,26,51,0,0
RAD,1884032254,176,167,84,26,51,0,0
RAD,1885006722,176,168,91,26,42,0,0
RAD,1885006748,176,168,91,26,42,0,0
RAD,1885963849,176,168,94,30,66,0,0
RAD,1885963874,176,168,94,30,66,0,0
RAD,1886941691,176,168,95,30,61,0,0
RAD,1886941726,176,168,95,30,61,0,0
RAD,1887904237,176,168,96,28,68,0,0
RAD,1887904261,176,168,96,28,68,0,0
RAD,1888948937,175,165,94,34,66,0,0
RAD,1888948963,175,165,94,34,66,0,0
RAD,1889961352,174,164,94,33,71,0,0
RAD,1889961377,174,164,94,33,71,0,0
RAD,1890933837,174,167,98,25,52,0,0
RAD,1890933940,174,167,98,25,52,0,0
RAD,1891929245,174,166,99,26,56,0,0
RAD,1891929272,174,166,99,26,56,0,0
RAD,1892966752,173,163,94,31,55,0,0
RAD,1892966819,173,163,94,31,55,0,0
RAD,1893941836,173,160,95,30,43,0,0
RAD,1893941861,173,160,95,30,43,0,0
RAD,1894906667,173,166,100,24,55,0,0
RAD,1894906721,173,166,100,24,55,0,0
RAD,1896061373,173,166,75,31,56,0,0
RAD,1896061459,173,166,75,31,56,0,0
RAD,1897955304,168,160,94,28,65,0,0
RAD,1897955329,168,160,94,28,65,0,0
RAD,1898951346,170,163,94,27,58,0,0
RAD,1898951466,170,163,94,27,58,0,0
RAD,1900033836,171,167,83,32,59,0,0
RAD,1900033904,171,167,83,32,59,0,0
RAD,1901001517,171,161,93,29,67,0,0
RAD,1901001618,171,161,93,29,67,0,0
RAD,1901955233,171,162,94,46,63,0,0
RAD,1901955300,171,162,94,46,63,0,0
RAD,1902941777,172,161,95,30,56,0,0
RAD,1902941802,172,161,95,30,56,0,0
RAD,1903948878,172,164,94,32,42,0,0
RAD,1903948903,172,164,94,32,42,0,0
RAD,1905041416,172,163,81,28,56,0,0
RAD,1905939122,172,163,96,28,67,0,0
RAD,1905939217,172,163,96,28,67,0,0
RAD,1907036386,172,164,82,31,45,0,0
RAD,1907036412,172,164,82,31,45,0,0
RAD,1907957867,172,164,94,29,75,0,0
RAD,1907957927,172,164,94,29,75,0,0
RAD,1908946458,172,163,94,31,42,0,0
RAD,1908946484,172,163,94,31,42,0,0
RAD,1909971365,173,164,94,30,71,0,0
RAD,1909971390,173,164,94,30,71,0,0
RAD,1912964222,175,169,94,30,58,0,0
RAD,1912964303,175,169,94,30,58,0,0
RAD,1915955269,176,169,94,27,39,0,0
RAD,1915955294,176,169,94,27,39,0,0
RAD,1917958908,176,167,94,25,57,0,0
RAD,1917958934,176,167,94,25,57,0,0
RAD,1919029309,177,166,85,29,61,0,0
RAD,1919029334,177,166,85,29,61,0,0
RAD,1920036376,177,169,83,29,78,0,0
RAD,1920036402,177,169,83,29,78,0,0
RAD,1920923822,177,169,100,32,53,0,0
RAD,1920923909,177,169,100,32,53,0,0
RAD,1921986321,178,166,94,26,53,0,0
RAD,1921986347,178,166,94,26,53,0,0
RAD,1923021339,175,169,88,30,55,0,0
RAD,1923021364,175,169,88,30,55,0,0
RAD,1923952796,175,168,94,27,37,0,0
RAD,1923952822,175,168,94,27,37,0,0
RAD,1925031385,174,168,84,32,43,0,0
RAD,1925031441,174,168,84,32,43,0,0
RAD,1925948837,174,167,94,30,34,0,0
RAD,1925948863,174,167,94,30,34,0,0
RAD,1926929217,174,163,99,29,54,0,0
RAD,1926929243,174,163,99,29,54,0,0
RAD,1927931462,174,167,98,23,55,0,0
RAD,1927931489,174,167,98,23,55,0,0
RAD,1928941635,174,167,95,25,82,0,0
RAD,1928941700,174,167,95,25,82,0,0
RAD,1930021408,175,170,87,29,50,0,0
RAD,1930021452,175,170,87,29,50,0,0
RAD,1930941645,175,166,95,34,78,0,0
RAD,1930941675,175,166,95,34,78,0,0
RAD,1931943838,175,165,94,31,69,0,0
RAD,1931943865,175,165,94,31,69,0,0
RAD,1932946351,175,168,94,24,39,0,0
RAD,1932946376,175,168,94,24,39,0,0
RAD,1933951352,175,168,94,23,68,0,0
RAD,1933951378,175,168,94,23,68,0,0
RAD,1938955338,175,167,94,30,34,0,0
RAD,1938955363,175,167,94,30,34,0,0
RAD,1939946423,175,162,94,29,42,0,0
RAD,1939946475,175,162,94,29,42,0,0
RAD,1943024223,173,166,86,29,42,0,0
RAD,1943024281,173,166,86,29,42,0,0
RAD,1943955269,173,164,94,33,63,0,0
RAD,1943955295,173,164,94,33,63,0,0
RAD,1944993870,173,159,83,30,50,0,0
RAD,1944993894,173,159,83,30,50,0,0
RAD,1946016763,173,164,89,34,54,0,0
RAD,1946016834,173,164,89,34,54,0,0
RAD,1947929248,173,165,99,35,43,0,0
RAD,1947929317,173,165,99,35,43,0,0
RAD,1948958895,170,160,94,32,50,0,0
RAD,1948958921,170,160,94,32,50,0,0
RAD,1949955304,166,153,94,34,77,0,0
RAD,1949955330,166,153,94,34,77,0,0
RAD,1950950318,166,154,94,49,63,0,0
RAD,1950950372,166,154,94,49,63,0,0
RAD,1952943888,165,154,94,27,45,0,0
RAD,1952943914,165,154,94,27,45,0,0
RAD,1953950299,164,147,94,25,75,0,0
RAD,1953950396,164,147,94,25,75,0,0
RAD,1954981350,164,154,94,30,51,0,0
RAD,1954981383,164,154,94,30,51,0,0
RAD,1956071341,164,156,72,25,44,0,0
RAD,1956071489,164,156,72,25,44,0,0
RAD,1956958909,164,155,94,27,43,0,0
RAD,1956958934,164,155,94,27,43,0,0
RAD,1957964270,163,155,94,26,58,0,0
RAD,1957964295,163,155,94,26,58,0,0
RAD,1958964309,163,154,94,43,62,0,0
RAD,1958964335,163,154,94,43,62,0,0
RAD,1959946332,163,155,94,26,51,0,0
RAD,1959946357,163,155,94,26,51,0,0
RAD,1960924276,163,151,100,27,49,0,0
RAD,1960924301,163,151,100,27,49,0,0
RAD,1961952810,162,153,94,28,48,0,0
RAD,1961952835,162,153,94,28,48,0,0
RAD,1962939163,162,158,96,25,34,0,0
RAD,1962939232,162,158,96,25,34,0,0
RAD,1963918850,163,156,100,23,39,0,0
RAD,1963918876,163,156,100,23,39,0,0
RAD,1965058933,163,159,76,28,72,0,0
RAD,1965058958,163,159,76,28,72,0,0
RAD,1965952743,163,153,94,27,68,0,0
RAD,1965952768,163,153,94,27,68,0,0
RAD,1967964249,161,155,94,26,60,0,0
RAD,1967964327,161,155,94,26,60,0,0
RAD,1968952723,159,154,94,27,43,0,0
RAD,1968952756,159,154,94,27,43,0,0
RAD,1969952837,158,152,94,27,45,0,0
RAD,1969952867,158,152,94,27,45,0,0
RAD,1971941352,164,151,95,26,57,0,0
RAD,1971941382,164,151,95,26,57,0,0
RAD,1972941318,162,152,95,25,51,0,0
RAD,1972941404,162,152,95,25,51,0,0
RAD,1973961795,163,155,94,30,43,0,0
RAD,1973961826,163,155,94,30,43,0,0
RAD,1974950315,163,156,94,25,51,0,0
RAD,1974950340,163,156,94,25,51,0,0
RAD,1975952769,166,157,94,27,49,0,0
RAD,1975952795,166,157,94,27,49,0,0
RAD,1976950364,164,155,94,29,58,0,0
RAD,1976950389,164,155,94,29,58,0,0
RAD,1978018861,163,157,88,36,71,0,0
RAD,1978018886,163,157,88,36,71,0,0
RAD,1978952754,163,154,94,25,50,0,0
RAD,1978952820,163,154,94,25,50,0,0
RAD,1980041282,164,159,81,32,60,0,0
RAD,1980041380,164,159,81,32,60,0,0
RAD,1980974210,164,152,90,34,82,0,0
RAD,1981964213,164,156,94,35,76,0,0
RAD,1981964294,164,156,94,35,76,0,0
RAD,1983028958,164,155,85,31,62,0,0
RAD,1983028983,164,155,85,31,62,0,0
RAD,1983983850,165,157,94,31,68,0,0
RAD,1983983876,165,157,94,31,68,0,0
RAD,1985041391,163,157,71,29,69,0,0
RAD,1985041471,163,157,71,29,69,0,0
RAD,1985950357,163,158,94,27,46,0,0
RAD,1985950387,163,158,94,27,46,0,0
RAD,1987933893,164,156,97,32,70,0,0
RAD,1987933923,164,156,97,32,70,0,0
RAD,1988966399,164,158,94,34,65,0,0
RAD,1988966431,164,158,94,34,65,0,0
RAD,1990037182,166,160,83,37,67,0,0
RAD,1990037208,166,160,83,37,67,0,0
RAD,1990928917,166,159,99,29,48,0,0
RAD,1990928944,166,159,99,29,48,0,0
RAD,1991953853,166,160,94,35,75,0,0
RAD,1991953948,166,160,94,35,75,0,0
RAD,1993023818,166,157,86,29,41,0,0
RAD,1993023922,166,157,86,29,41,0,0
RAD,1995031372,166,158,84,35,56,0,0
RAD,1995031467,166,158,84,35,56,0,0
RAD,1995941450,166,158,95,29,41,0,0
RAD,1995941475,166,158,95,29,41,0,0
RAD,1996941306,166,152,95,33,72,0,0
RAD,1996941409,166,152,95,33,72,0,0
RAD,1997939174,166,156,96,29,63,0,0
RAD,1997939199,166,156,96,29,63,0,0
RAD,1998966315,166,159,94,30,51,0,0
RAD,1998966340,166,159,94,30,51,0,0
RAD,2000041354,163,158,81,32,58,0,0
RAD,2000041394,163,158,81,32,58,0,0
RAD,2000931380,163,154,98,28,59,0,0
RAD,2000931440,163,154,98,28,59,0,0
RAD,2003039711,163,152,82,37,63,0,0
RAD,2003039741,163,152,82,37,63,0,0
RAD,2005056330,162,148,77,33,96,0,0
RAD,2005056392,162,148,77,33,96,0,0
RAD,2005952753,162,149,94,28,65,0,0
RAD,2005952810,162,149,94,28,65,0,0
RAD,2007939150,164,148,96,46,79,0,0
RAD,2007939175,164,148,96,46,79,0,0
RAD,2008952825,163,145,94,34,90,0,0
RAD,2008952850,163,145,94,34,90,0,0
RAD,2009941382,163,149,95,32,52,0,0
RAD,2009941407,163,149,95,32,52,0,0
RAD,2010966326,161,148,94,35,74,0,0
RAD,2010966456,161,148,94,35,74,0,0
RAD,2012009418,157,143,91,37,72,0,0
RAD,2012009443,157,143,91,37,72,0,0
RAD,2012948937,158,140,94,31,94,0,0
RAD,2012948967,158,140,94,31,94,0,0
RAD,2014956336,158,149,94,39,77,0,0
RAD,2014956361,158,149,94,39,77,0,0
RAD,2016016334,158,148,89,27,67,0,0
RAD,2016016365,158,148,89,27,67,0,0
RAD,2016939099,158,144,96,39,66,0,0
RAD,2016939124,158,144,96,39,66,0,0
RAD,2017973826,158,146,94,38,73,0,0
RAD,2017973918,158,146,94,38,73,0,0
RAD,2019060297,160,144,75,59,70,0,0
RAD,2019060393,160,144,75,59,70,0,0
RAD,2020048944,158,146,79,26,65,0,0
RAD,2020048969,158,146,79,26,65,0,0
RAD,2020886339,158,143,100,27,59,0,0
RAD,2020886370,158,143,100,27,59,0,0
RAD,2021964288,160,148,94,38,48,0,0
RAD,2021964313,160,148,94,38,48,0,0
RAD,2025043866,149,137,80,26,52,0,0
RAD,2025043972,149,137,80,26,52,0,0
RAD,2025956331,148,139,94,29,66,0,0
RAD,2025956357,148,139,94,29,66,0,0
RAD,2026943882,147,138,94,33,84,0,0
RAD,2026944004,147,138,94,33,84,0,0
RAD,2027950316,150,141,94,34,75,0,0
RAD,2027950341,150,141,94,34,75,0,0
RAD,2036968964,143,142,94,28,49,0,0
RAD,2036968989,143,142,94,28,49,0,0
RAD,2037943838,144,142,94,32,37,0,0
RAD,2037943893,144,142,94,32,37,0,0
RAD,2038938911,146,141,96,30,52,0,0
RAD,2038938936,146,141,96,30,52,0,0
RAD,2039946756,146,134,94,26,52,0,0
RAD,2039946782,146,134,94,26,52,0,0
RAD,2040936677,147,139,97,25,60,0,0
RAD,2040936702,147,139,97,25,60,0,0
RAD,2041960310,150,144,94,28,39,0,0
RAD,2041960335,150,144,94,28,39,0,0
RAD,2042956321,151,144,94,26,42,0,0
RAD,2042956376,151,144,94,26,42,0,0
RAD,2045066383,156,148,74,33,55,0,0
RAD,2045066409,156,148,74,33,55,0,0
RAD,2045938901,155,146,96,26,44,0,0
RAD,2045938926,155,146,96,26,44,0,0
RAD,2046946735,155,148,94,27,49,0,0
RAD,2046946823,155,148,94,27,49,0,0
RAD,2047981316,156,149,94,25,38,0,0
RAD,2047981427,156,149,94,25,38,0,0
RAD,2048961745,153,146,94,25,54,0,0
RAD,2048961821,153,146,94,25,54,0,0
RAD,2049950340,150,146,94,27,56,0,0
RAD,2049950365,150,146,94,27,56,0,0
RAD,2050969299,148,146,94,34,39,0,0
RAD,2050969324,148,146,94,34,39,0,0
RAD,2051944359,147,145,94,24,45,0,0
RAD,2051944385,147,145,94,24,45,0,0
RAD,2053032305,148,140,84,30,67,0,0
RAD,2053032330,148,140,84,30,67,0,0
RAD,2053950361,151,145,94,38,62,0,0
RAD,2053950420,151,145,94,38,62,0,0
RAD,2054963800,146,143,94,31,54,0,0
RAD,2054963825,146,143,94,31,54,0,0
RAD,2056019233,153,138,88,33,51,0,0
RAD,2056019258,153,138,88,33,51,0,0
RAD,2057086325,150,135,67,28,63,0,0
RAD,2057086444,150,135,67,28,63,0,0
RAD,2057919204,144,140,100,29,63,0,0
RAD,2057919262,144,140,100,29,63,0,0
RAD,2059078961,148,140,70,29,66,0,0
RAD,2059078986,148,140,70,29,66,0,0
RAD,2059961328,149,133,94,62,98,0,0
RAD,2059961384,149,133,94,62,98,0,0
RAD,2060941386,148,141,95,36,66,0,0
RAD,2061957793,151,142,94,31,57,0,0
RAD,2061957819,151,142,94,31,57,0,0
RAD,2063041416,153,141,81,50,73,0,0
RAD,2063041441,153,141,81,50,73,0,0
RAD,2063953853,151,142,94,30,89,0,0
RAD,2063954023,151,142,94,30,89,0,0
RAD,2065073875,156,141,71,29,58,0,0
RAD,2065073901,156,141,71,29,58,0,0
RAD,2065934197,159,149,97,26,45,0,0
RAD,2065934222,159,149,97,26,45,0,0
RAD,2066941363,159,152,95,29,54,0,0
RAD,2066941388,159,152,95,29,54,0,0
RAD,2067976350,159,153,94,34,40,0,0
RAD,2067976375,159,153,94,34,40,0,0
RAD,2068963868,160,154,94,27,61,0,0
RAD,2068963894,160,154,94,27,61,0,0
RAD,2069953859,163,157,94,28,45,0,0
RAD,2069953884,163,157,94,28,45,0,0
RAD,2070957776,169,162,94,25,43,0,0
RAD,2070957802,169,162,94,25,43,0,0
RAD,2071938903,170,163,96,26,50,0,0
RAD,2071938929,170,163,96,26,50,0,0
RAD,2073026337,169,161,86,26,48,0,0
RAD,2073026362,169,161,86,26,48,0,0
RAD,2073913844,166,160,96,30,61,0,0
RAD,2073913870,166,160,96,30,61,0,0
RAD,2074948899,170,162,94,23,83,0,0
RAD,2074948995,170,162,94,23,83,0,0
RAD,2075941430,176,171,95,28,63,0,0
RAD,2075941530,176,171,95,28,63,0,0
RAD,2076966326,177,163,94,26,47,0,0
RAD,2076966381,177,163,94,26,47,0,0
RAD,2077923829,172,163,100,25,48,0,0
RAD,2077923869,172,163,100,25,48,0,0
RAD,2078957688,181,171,94,27,39,0,0
RAD,2078957806,181,171,94,27,39,0,0
RAD,2080053843,187,179,78,28,74,0,0
RAD,2080053868,187,179,78,28,74,0,0
RAD,2080931680,195,191,98,26,68,0,0
RAD,2080931705,195,191,98,26,68,0,0
RAD,2081946762,198,194,94,24,45,0,0
RAD,2081946793,198,194,94,24,45,0,0
RAD,2082928926,198,194,99,28,50,0,0
RAD,2082928951,198,194,99,28,50,0,0
RAD,2083957756,191,174,94,28,51,0,0
RAD,2083957782,191,174,94,28,51,0,0
RAD,2085046767,191,185,80,27,55,0,0
RAD,2085046793,191,185,80,27,55,0,0
RAD,2085960355,187,179,94,26,68,0,0
RAD,2085960381,187,179,94,26,68,0,0
RAD,2088966350,173,165,94,29,50,0,0
RAD,2088966431,173,165,94,29,50,0,0
RAD,2090038898,182,183,82,32,64,0,0
RAD,2090038983,182,183,82,32,64,0,0
RAD,2090957772,183,177,94,28,39,0,0
RAD,2090957797,183,177,94,28,39,0,0
RAD,2091957695,183,175,94,27,44,0,0
RAD,2091957721,183,175,94,27,44,0,0
RAD,2093026338,185,182,86,28,41,0,0
RAD,2093026363,185,182,86,28,41,0,0
RAD,2093921698,187,180,100,25,55,0,0
RAD,2093921754,187,180,100,25,55,0,0
RAD,2094957800,186,177,94,25,66,0,0
RAD,2094957825,186,177,94,25,66,0,0
RAD,2095951402,181,168,94,26,70,0,0
RAD,2095951501,181,168,94,26,70,0,0
RAD,2096953833,174,163,94,31,61,0,0
RAD,2096953889,174,163,94,31,61,0,0
RAD,2097916339,159,160,100,26,55,0,0
RAD,2097916364,159,160,100,26,55,0,0
RAD,2099006651,159,149,92,28,62,0,0
RAD,2099006677,159,149,92,28,62,0,0
RAD,2100051356,166,152,78,26,56,0,0
RAD,2100051382,166,152,78,26,56,0,0
RAD,2101001356,158,152,94,28,87,0,0
RAD,2101001382,158,152,94,28,87,0,0
RAD,2101957806,163,147,94,25,53,0,0
RAD,2101957835,163,147,94,25,53,0,0
RAD,2103038985,158,143,82,34,81,0,0
RAD,2103039010,158,143,82,34,81,0,0
RAD,2103953824,160,148,94,28,70,0,0
RAD,2103953877,160,148,94,28,70,0,0
RAD,2105060313,161,149,72,31,81,0,0
RAD,2105060408,161,149,72,31,81,0,0
RAD,2105951294,164,154,94,26,77,0,0
RAD,2105951382,164,154,94,26,77,0,0
RAD,2106948827,171,160,94,30,92,0,0
RAD,2106948853,171,160,94,30,92,0,0
RAD,2108973844,173,167,94,28,48,0,0
RAD,2108973871,173,167,94,28,48,0,0
RAD,2110966334,174,165,94,30,69,0,0
RAD,2110966394,174,165,94,30,69,0,0
RAD,2111934125,174,163,98,27,63,0,0
RAD,2111934162,174,163,98,27,63,0,0
RAD,2113031732,173,159,84,23,63,0,0
RAD,2113031760,173,159,84,23,63,0,0
RAD,2113957726,175,168,94,31,38,0,0
RAD,2113957752,175,168,94,31,38,0,0
RAD,2114946753,173,166,94,27,59,0,0
RAD,2114946778,173,166,94,27,59,0,0
RAD,2115936351,171,164,97,27,44,0,0
RAD,2115936377,171,164,97,27,44,0,0
RAD,2117078841,171,162,70,28,40,0,0
RAD,2117078866,171,162,70,28,40,0,0
RAD,2117936364,168,155,97,27,66,0,0
RAD,2117936422,168,155,97,27,66,0,0
RAD,2118957785,168,163,94,25,63,0,0
RAD,2118957811,168,163,94,25,63,0,0
RAD,2119941354,168,158,95,32,43,0,0
RAD,2119941402,168,158,95,32,43,0,0
RAD,2121966400,168,162,94,27,54,0,0
RAD,2121966470,168,162,94,27,54,0,0
RAD,2123934178,166,158,97,24,40,0,0
RAD,2123934203,166,158,97,24,40,0,0
RAD,2125069890,165,158,73,25,29,0,0
RAD,2125069915,165,158,73,25,29,0,0
RAD,2125957751,170,157,94,26,41,0,0
RAD,2125957809,170,157,94,26,41,0,0
RAD,2126957804,175,167,94,26,37,0,0
RAD,2126957829,175,167,94,26,37,0,0
RAD,2128957723,176,168,94,30,78,0,0
RAD,2128957818,176,168,94,30,78,0,0
RAD,2130046768,176,170,79,31,70,0,0
RAD,2130046853,176,170,79,31,70,0,0
RAD,2131938862,161,151,96,27,51,0,0
RAD,2131938887,161,151,96,27,51,0,0
RAD,2133003844,164,148,93,38,73,0,0
RAD,2133003869,164,148,93,38,73,0,0
RAD,2133953860,166,153,94,30,72,0,0
RAD,2133953885,166,153,94,30,72,0,0
RAD,2134923834,169,161,100,35,61,0,0
RAD,2134923859,169,161,100,35,61,0,0
RAD,2135926313,153,123,96,35,48,0,0
RAD,2135926338,153,123,96,35,48,0,0
RAD,2136944239,167,162,94,25,36,0,0
RAD,2136944264,167,162,94,25,36,0,0
RAD,2137941346,167,161,95,24,64,0,0
RAD,2137941426,167,161,95,24,64,0,0
RAD,2138984141,147,141,94,27,44,0,0
RAD,2138984166,147,141,94,27,44,0,0
RAD,2139948873,158,140,94,25,69,0,0
RAD,2139948905,158,140,94,25,69,0,0
RAD,2140944269,164,144,94,28,94,0,0
RAD,2140944294,164,144,94,28,94,0,0
RAD,2141941343,167,155,95,26,60,0,0
RAD,2141941368,167,155,95,26,60,0,0
RAD,2151951345,176,167,94,26,49,0,0
RAD,2151951371,176,167,94,26,49,0,0
RAD,2154955226,169,161,94,27,44,0,0
RAD,2154955250,169,161,94,27,44,0,0
RAD,2156026419,169,161,86,27,70,0,0
RAD,2156026476,169,161,86,27,70,0,0
RAD,2156951346,173,166,94,28,44,0,0
RAD,2156951417,173,166,94,28,44,0,0
RAD,2158951349,188,184,94,25,58,0,0
RAD,2158951374,188,184,94,25,58,0,0
RAD,2159966836,188,182,94,26,57,0,0
RAD,2159966862,188,182,94,26,57,0,0
RAD,2160991833,186,175,94,26,53,0,0
RAD,2160991859,186,175,94,26,53,0,0
RAD,2161957676,172,163,94,35,79,0,0
RAD,2161957771,172,163,94,35,79,0,0
RAD,2162933832,180,166,97,27,60,0,0
RAD,2162933952,180,166,97,27,60,0,0
RAD,2165055364,183,175,78,25,53,0,0
RAD,2165055390,183,175,78,25,53,0,0
RAD,2166041681,187,182,81,31,60,0,0
RAD,2166041706,187,182,81,31,60,0,0
RAD,2167021356,187,185,87,23,70,0,0
RAD,2167021387,187,185,87,23,70,0,0
RAD,2167979189,187,184,94,27,36,0,0
RAD,2167979214,187,184,94,27,36,0,0
RAD,2168946330,187,182,94,31,40,0,0
RAD,2168946410,187,182,94,31,40,0,0
RAD,2169938861,187,180,96,32,53,0,0
RAD,2169938919,187,180,96,32,53,0,0
RAD,2170941625,187,181,95,32,36,0,0
RAD,2170941710,187,181,95,32,36,0,0
RAD,2173038891,188,183,82,27,40,0,0
RAD,2173038916,188,183,82,27,40,0,0
RAD,2173936355,188,179,97,24,44,0,0
RAD,2173936385,188,179,97,24,44,0,0
RAD,2175976659,188,182,94,33,54,0,0
RAD,2175976684,188,182,94,33,54,0,0
RAD,2176944275,188,183,94,27,50,0,0
RAD,2176944307,188,183,94,27,50,0,0
RAD,2177939189,188,184,96,27,52,0,0
RAD,2177939215,188,184,96,27,52,0,0
RAD,2179014193,188,182,89,30,60,0,0
RAD,2179014218,188,182,89,30,60,0,0
RAD,2179966313,188,182,94,29,69,0,0
RAD,2179966338,188,182,94,29,69,0,0
RAD,2180939118,188,184,96,25,43,0,0
RAD,2180939185,188,184,96,25,43,0,0
RAD,2181952864,188,182,94,26,38,0,0
RAD,2181952889,188,182,94,26,38,0,0
RAD,2182944252,188,180,94,32,47,0,0
RAD,2182944277,188,180,94,32,47,0,0
RAD,2183969340,185,174,94,30,74,0,0
RAD,2183969365,185,174,94,30,74,0,0
RAD,2185053833,185,177,77,31,60,0,0
RAD,2185053859,185,177,77,31,60,0,0
RAD,2186039298,183,170,82,33,48,0,0
RAD,2186039324,183,170,82,33,48,0,0
RAD,2186957662,181,171,94,32,52,0,0
RAD,2186957764,181,171,94,32,52,0,0
RAD,2187978909,184,174,94,32,69,0,0
RAD,2187978934,184,174,94,32,69,0,0
RAD,2188931764,184,175,98,26,53,0,0
RAD,2188931789,184,175,98,26,53,0,0
RAD,2189939134,176,167,96,29,56,0,0
RAD,2189939184,176,167,96,29,56,0,0
RAD,2190973842,169,161,94,40,62,0,0
RAD,2190973923,169,161,94,40,62,0,0
RAD,2191961347,168,160,94,30,44,0,0
RAD,2191961372,168,160,94,30,44,0,0
RAD,2193046305,169,162,80,31,63,0,0
RAD,2193046331,169,162,80,31,63,0,0
RAD,2194952755,172,166,94,28,65,0,0
RAD,2194952834,172,166,94,28,65,0,0
RAD,2195952844,174,164,94,31,40,0,0
RAD,2195952873,174,164,94,31,40,0,0
RAD,2197948975,183,173,94,54,33,0,0
RAD,2197949000,183,173,94,54,33,0,0
RAD,2198944288,187,183,94,46,52,0,0
RAD,2198944314,187,183,94,46,52,0,0
RAD,2199933924,187,182,97,42,59,0,0
RAD,2199933952,187,182,97,42,59,0,0
RAD,2201948910,180,171,94,33,63,0,0
RAD,2201948967,180,171,94,33,63,0,0
RAD,2203926644,174,165,100,39,46,0,0
RAD,2203926678,174,165,100,39,46,0,0
RAD,2205083807,165,157,68,60,68,0,0
RAD,2205083833,165,157,68,60,68,0,0
RAD,2206050382,161,155,79,37,53,0,0
RAD,2206050406,161,155,79,37,53,0,0
RAD,2206294137,161,155,70,31,53,0,0
RAD,2206294193,161,155,70,31,53,0,0
RAD,2206953873,167,151,94,48,55,0,0
RAD,2206953899,167,151,94,48,55,0,0
RAD,2207951297,170,162,94,24,77,0,0
RAD,2207951323,170,162,94,24,77,0,0
RAD,2209957759,170,159,94,27,52,0,0
RAD,2209957825,170,159,94,27,52,0,0
RAD,2210931731,170,164,99,25,42,0,0
RAD,2210931758,170,164,99,25,42,0,0
RAD,2211969289,169,164,94,25,51,0,0
RAD,2211969314,169,164,94,25,51,0,0
RAD,2213050489,169,160,79,24,72,0,0
RAD,2213050514,169,160,79,24,72,0,0
RAD,2213969314,169,159,94,21,66,0,0
RAD,2213969339,169,159,94,21,66,0,0
RAD,2214956325,169,160,94,26,35,0,0
RAD,2214956353,169,160,94,26,35,0,0
RAD,2216958944,166,155,94,28,36,0,0
RAD,2216958978,166,155,94,28,36,0,0
RAD,2217946347,166,156,94,29,42,0,0
RAD,2217946400,166,156,94,29,42,0,0
RAD,2219026636,166,158,86,28,72,0,0
RAD,2219026673,166,158,86,28,72,0,0
RAD,2220939183,166,154,95,37,59,0,0
RAD,2220939228,166,154,95,37,59,0,0
RAD,2222021724,164,153,87,31,82,0,0
RAD,2222021753,164,153,87,31,82,0,0
RAD,2222969028,164,154,94,25,59,0,0
RAD,2222969054,164,154,94,25,59,0,0
RAD,2223946765,166,156,94,27,55,0,0
RAD,2223946790,166,156,94,27,55,0,0
RAD,2225060384,166,158,76,33,56,0,0
RAD,2225060410,166,158,76,33,56,0,0
RAD,2228001622,166,162,93,27,66,0,0
RAD,2228001651,166,162,93,27,66,0,0
RAD,2228952855,166,151,92,29,34,0,0
RAD,2228952881,166,151,92,29,34,0,0
RAD,2229961435,167,164,94,28,43,0,0
RAD,2229961517,167,164,94,28,43,0,0
RAD,2230993848,165,157,94,36,50,0,0
RAD,2230993986,165,157,94,36,50,0,0
RAD,2231952800,172,164,94,32,47,0,0
RAD,2231952871,172,164,94,32,47,0,0
RAD,2232946808,173,161,94,34,37,0,0
RAD,2232946898,173,161,94,34,37,0,0
RAD,2233984124,176,169,94,40,52,0,0
RAD,2233984221,176,169,94,40,52,0,0
RAD,2234952809,178,171,94,42,57,0,0
RAD,2234952834,178,171,94,42,57,0,0
RAD,2235943826,180,177,94,35,36,0,0
RAD,2235943908,180,177,94,35,36,0,0
RAD,2237052772,188,174,78,32,98,0,0
RAD,2237052797,188,174,78,32,98,0,0
RAD,2237939204,189,183,96,24,45,0,0
RAD,2237939229,189,183,96,24,45,0,0
RAD,2239039199,194,195,82,25,57,0,0
RAD,2239039225,194,195,82,25,57,0,0
RAD,2239934199,186,174,97,48,50,0,0
RAD,2239934226,186,174,97,48,50,0,0
RAD,2240964170,166,153,94,39,95,0,0
RAD,2240964266,166,153,94,39,95,0,0
RAD,2242031381,163,158,84,33,40,0,0
RAD,2242031406,163,158,84,33,40,0,0
RAD,2242952881,165,157,94,29,57,0,0
RAD,2242952907,165,157,94,29,57,0,0
RAD,2243943871,160,152,94,35,64,0,0
RAD,2243943897,160,152,94,35,64,0,0
RAD,2245053843,165,159,77,37,69,0,0
RAD,2245053921,165,159,77,37,69,0,0
RAD,2245953864,167,160,94,41,62,0,0
RAD,2245953889,167,160,94,41,62,0,0
RAD,2247056324,171,161,77,36,55,0,0
RAD,2247056380,171,161,77,36,55,0,0
RAD,2247961768,173,161,94,40,48,0,0
RAD,2247961793,173,161,94,40,48,0,0
RAD,2249072196,173,167,72,46,44,0,0
RAD,2249072225,173,167,72,46,44,0,0
RAD,2250009229,173,164,91,32,73,0,0
RAD,2250009254,173,164,91,32,73,0,0
RAD,2250966745,173,162,94,31,87,0,0
RAD,2250966770,173,162,94,31,87,0,0
RAD,2251963863,173,165,94,41,59,0,0
RAD,2251963890,173,165,94,41,59,0,0
RAD,2252951308,170,163,94,40,64,0,0
RAD,2252951334,170,163,94,40,64,0,0
RAD,2253986659,168,157,94,43,60,0,0
RAD,2253986684,168,157,94,43,60,0,0
RAD,2255941727,168,159,95,44,51,0,0
RAD,2255941752,168,159,95,44,51,0,0
RAD,2256968990,172,163,94,35,52,0,0
RAD,2256969050,172,163,94,35,52,0,0
RAD,2257974168,172,166,94,31,59,0,0
RAD,2257974193,172,166,94,31,59,0,0
RAD,2259038926,172,165,82,29,76,0,0
RAD,2259038987,172,165,82,29,76,0,0
RAD,2260006336,172,163,92,41,57,0,0
RAD,2260006401,172,163,92,41,57,0,0
RAD,2260966762,172,162,94,33,33,0,0
RAD,2260966787,172,162,94,33,33,0,0
RAD,2262029305,172,164,85,32,58,0,0
RAD,2262029370,172,164,85,32,58,0,0
RAD,2263954359,172,163,94,31,50,0,0
RAD,2263954386,172,163,94,31,50,0,0
RAD,2265029289,172,165,86,38,54,0,0
RAD,2265029316,172,165,86,38,54,0,0
RAD,2265941630,172,161,95,34,50,0,0
RAD,2265941727,172,161,95,34,50,0,0
RAD,2266943740,172,165,94,32,58,0,0
RAD,2266943795,172,165,94,32,58,0,0
RAD,2267951298,171,163,94,35,51,0,0
RAD,2267951325,171,163,94,35,51,0,0
RAD,2269049395,171,163,78,38,51,0,0
RAD,2269049425,171,163,78,38,51,0,0
